[
  {
    "query": "London",
    "id": 2643743,
    "name": "London",
    "latitude": 51.50853,
    "longitude": -0.12574,
    "elevation": 25.0,
    "country_code": "GB",
    "country": "United Kingdom",
    "admin1": "England",
    "admin2": "Greater London",
    "timezone": "Europe/London",
    "population": 8961989
  },
  {
    "query": "Tokyo",
    "id": 1850147,
    "name": "Tokyo",
    "latitude": 35.6895,
    "longitude": 139.69171,
    "elevation": 44.0,
    "country_code": "JP",
    "country": "Japan",
    "admin1": "Tokyo",
    "admin2": null,
    "timezone": "Asia/Tokyo",
    "population": 9733276
  },
  {
    "query": "Moscow",
    "id": 524901,
    "name": "Moscow",
    "latitude": 55.75204,
    "longitude": 37.61781,
    "elevation": 155.0,
    "country_code": "RU",
    "country": "Russia",
    "admin1": "Moscow",
    "admin2": null,
    "timezone": "Europe/Moscow",
    "population": 10381222
  },
  {
    "query": "Beijing",
    "id": 1816670,
    "name": "Beijing",
    "latitude": 39.9075,
    "longitude": 116.39723,
    "elevation": 49.0,
    "country_code": "CN",
    "country": "China",
    "admin1": "Beijing Municipality",
    "admin2": "Beijing",
    "timezone": "Asia/Shanghai",
    "population": 18960744
  },
  {
    "query": "Sydney",
    "id": 2147714,
    "name": "Sydney",
    "latitude": -33.86785,
    "longitude": 151.20732,
    "elevation": 58.0,
    "country_code": "AU",
    "country": "Australia",
    "admin1": "New South Wales",
    "admin2": null,
    "timezone": "Australia/Sydney",
    "population": 5557233
  },
  {
    "query": "Cape Town",
    "id": 3369157,
    "name": "Cape Town",
    "latitude": -33.92584,
    "longitude": 18.42322,
    "elevation": 25.0,
    "country_code": "ZA",
    "country": "South Africa",
    "admin1": "Western Cape",
    "admin2": "City of Cape Town",
    "timezone": "Africa/Johannesburg",
    "population": 4772846
  },
  {
    "query": "Rio de Janeiro",
    "id": 3451190,
    "name": "Rio de Janeiro",
    "latitude": -22.90642,
    "longitude": -43.18223,
    "elevation": 12.0,
    "country_code": "BR",
    "country": "Brazil",
    "admin1": "Rio de Janeiro",
    "admin2": "Rio de Janeiro",
    "timezone": "America/Sao_Paulo",
    "population": 6747815
  },
  {
    "query": "Lagos",
    "id": 2332459,
    "name": "Lagos",
    "latitude": 6.45407,
    "longitude": 3.39467,
    "elevation": 11.0,
    "country_code": "NG",
    "country": "Nigeria",
    "admin1": "Lagos",
    "admin2": null,
    "timezone": "Africa/Lagos",
    "population": 15388000
  },
  {
    "query": "Berlin",
    "id": 2950159,
    "name": "Berlin",
    "latitude": 52.52437,
    "longitude": 13.41053,
    "elevation": 74.0,
    "country_code": "DE",
    "country": "Germany",
    "admin1": "State of Berlin",
    "admin2": null,
    "timezone": "Europe/Berlin",
    "population": 3426354
  },
  {
    "query": "Madrid",
    "id": 3117735,
    "name": "Madrid",
    "latitude": 40.4165,
    "longitude": -3.70256,
    "elevation": 665.0,
    "country_code": "ES",
    "country": "Spain",
    "admin1": "Madrid",
    "admin2": "Madrid",
    "timezone": "Europe/Madrid",
    "population": 3255944
  },
  {
    "query": "Rome",
    "id": 3169070,
    "name": "Rome",
    "latitude": 41.89193,
    "longitude": 12.51133,
    "elevation": 20.0,
    "country_code": "IT",
    "country": "Italy",
    "admin1": "Lazio",
    "admin2": "Province of Rome",
    "timezone": "Europe/Rome",
    "population": 2318895
  },
  {
    "query": "Istanbul",
    "id": 745044,
    "name": "Istanbul",
    "latitude": 41.01384,
    "longitude": 28.94966,
    "elevation": 39.0,
    "country_code": "TR",
    "country": "Republic of Türkiye",
    "admin1": "Istanbul",
    "admin2": null,
    "timezone": "Europe/Istanbul",
    "population": 15701602
  },
  {
    "query": "Dubai",
    "id": 292223,
    "name": "Dubai",
    "latitude": 25.07725,
    "longitude": 55.30927,
    "elevation": 24.0,
    "country_code": "AE",
    "country": "United Arab Emirates",
    "admin1": "Dubai",
    "admin2": null,
    "timezone": "Asia/Dubai",
    "population": 3790000
  },
  {
    "query": "Singapore",
    "id": 1880252,
    "name": "Singapore",
    "latitude": 1.28967,
    "longitude": 103.85007,
    "elevation": 23.0,
    "country_code": "SG",
    "country": "Singapore",
    "admin1": null,
    "admin2": null,
    "timezone": "Asia/Singapore",
    "population": 5638700
  },
  {
    "query": "Paris",
    "id": 2988507,
    "name": "Paris",
    "latitude": 48.85341,
    "longitude": 2.3488,
    "elevation": 42.0,
    "country_code": "FR",
    "country": "France",
    "admin1": "Île-de-France Region",
    "admin2": "Paris Department",
    "timezone": "Europe/Paris",
    "population": 2138551
  },
  {
    "query": "Casablanca",
    "id": 2553604,
    "name": "Casablanca",
    "latitude": 33.58831,
    "longitude": -7.61138,
    "elevation": 27.0,
    "country_code": "MA",
    "country": "Morocco",
    "admin1": "Casablanca-Settat",
    "admin2": "Casablanca",
    "timezone": "Africa/Casablanca",
    "population": 3665954
  },
  {
    "query": "Nairobi",
    "id": 184745,
    "name": "Nairobi",
    "latitude": -1.28333,
    "longitude": 36.81667,
    "elevation": 1684.0,
    "country_code": "KE",
    "country": "Kenya",
    "admin1": "Nairobi County",
    "admin2": null,
    "timezone": "Africa/Nairobi",
    "population": 4397073
  },
  {
    "query": "Buenos Aires",
    "id": 3435910,
    "name": "Buenos Aires",
    "latitude": -34.61315,
    "longitude": -58.37723,
    "elevation": 31.0,
    "country_code": "AR",
    "country": "Argentina",
    "admin1": "Buenos Aires F.D.",
    "admin2": null,
    "timezone": "America/Argentina/Buenos_Aires",
    "population": 2891082
  },
  {
    "query": "Dakar",
    "id": 2253354,
    "name": "Dakar",
    "latitude": 14.6937,
    "longitude": -17.44406,
    "elevation": 12.0,
    "country_code": "SN",
    "country": "Senegal",
    "admin1": "Dakar",
    "admin2": null,
    "timezone": "Africa/Dakar",
    "population": 2646503
  },
  {
    "query": "Lima",
    "id": 3936456,
    "name": "Lima",
    "latitude": -12.04318,
    "longitude": -77.02824,
    "elevation": 152.0,
    "country_code": "PE",
    "country": "Peru",
    "admin1": "Lima Province",
    "admin2": null,
    "timezone": "America/Lima",
    "population": 7737002
  },
  {
    "query": "Delhi",
    "id": 1273294,
    "name": "Delhi",
    "latitude": 28.65195,
    "longitude": 77.23149,
    "elevation": 227.0,
    "country_code": "IN",
    "country": "India",
    "admin1": "National Capital Territory of Delhi",
    "admin2": null,
    "timezone": "Asia/Kolkata",
    "population": 11034555
  },
  {
    "query": "Bangkok",
    "id": 1609350,
    "name": "Bangkok",
    "latitude": 13.75398,
    "longitude": 100.50144,
    "elevation": 12.0,
    "country_code": "TH",
    "country": "Thailand",
    "admin1": "Bangkok",
    "admin2": null,
    "timezone": "Asia/Bangkok",
    "population": 5104476
  },
  {
    "query": "Seoul",
    "id": 1835848,
    "name": "Seoul",
    "latitude": 37.566,
    "longitude": 126.9784,
    "elevation": 38.0,
    "country_code": "KR",
    "country": "South Korea",
    "admin1": "Seoul",
    "admin2": null,
    "timezone": "Asia/Seoul",
    "population": 10349312
  },
  {
    "query": "Manila",
    "id": 1701668,
    "name": "Manila",
    "latitude": 14.6042,
    "longitude": 120.9822,
    "elevation": 13.0,
    "country_code": "PH",
    "country": "Philippines",
    "admin1": "National Capital Region",
    "admin2": "Capital District",
    "timezone": "Asia/Manila",
    "population": 1600000
  },
  {
    "query": "Jakarta",
    "id": 1642911,
    "name": "Jakarta",
    "latitude": -6.21462,
    "longitude": 106.84513,
    "elevation": 16.0,
    "country_code": "ID",
    "country": "Indonesia",
    "admin1": "Jakarta Special Capital Region",
    "admin2": null,
    "timezone": "Asia/Jakarta",
    "population": 8540121
  },
  {
    "query": "Auckland",
    "id": 2193733,
    "name": "Auckland",
    "latitude": -36.84853,
    "longitude": 174.76349,
    "elevation": 43.0,
    "country_code": "NZ",
    "country": "New Zealand",
    "admin1": "Auckland",
    "admin2": "Auckland",
    "timezone": "Pacific/Auckland",
    "population": 1547200
  },
  {
    "query": "Warsaw",
    "id": 756135,
    "name": "Warsaw",
    "latitude": 52.22977,
    "longitude": 21.01178,
    "elevation": 113.0,
    "country_code": "PL",
    "country": "Poland",
    "admin1": "Mazovia",
    "admin2": "Warszawa",
    "timezone": "Europe/Warsaw",
    "population": 1702139
  },
  {
    "query": "Cairo",
    "id": 360630,
    "name": "Cairo",
    "latitude": 30.06263,
    "longitude": 31.24967,
    "elevation": 23.0,
    "country_code": "EG",
    "country": "Egypt",
    "admin1": "Cairo Governorate",
    "admin2": null,
    "timezone": "Africa/Cairo",
    "population": 9606916
  },
  {
    "query": "Baghdad",
    "id": 98182,
    "name": "Baghdad",
    "latitude": 33.34058,
    "longitude": 44.40088,
    "elevation": 41.0,
    "country_code": "IQ",
    "country": "Iraq",
    "admin1": "Baghdad",
    "admin2": "Al Rusafa",
    "timezone": "Asia/Baghdad",
    "population": 7216000
  },
  {
    "query": "Kathmandu",
    "id": 1283240,
    "name": "Kathmandu",
    "latitude": 27.70169,
    "longitude": 85.3206,
    "elevation": 1317.0,
    "country_code": "NP",
    "country": "Nepal",
    "admin1": "Bagmati Province",
    "admin2": "Kathmandu",
    "timezone": "Asia/Kathmandu",
    "population": 1442271
  }
]